city,activity,name,latitude,longitude,price,rating,place_id
Dahab,Snorkeling,Three Pools Beach,28.43754423,34.4586497,25,4,1
Dahab,Snorkeling,Blue Lagoon Beach,28.63543057,34.57851294,20,4,2
Dahab,Snorkeling,Blue Hole Beach,28.57262348,34.53717615,20,4,3
Dahab,Snorkeling,Colored Canyon,29.14706628,34.58988817,60,4,4
Dahab,Snorkeling,Abu Gallum,28.61493606,34.55947527,51,4,5
Dahab,Snorkeling,Eel Garden,28.50509285,34.51974237,60,4,6
Dahab,Snorkeling,LightHouse Beach,28.49917745,34.5199179,24.93,4,7
Dahab,Snorkeling,Gabr El Bent,28.35323804,34.4336267,22,4,8
Dahab,Windsurfing,Kite Lagoon,28.47934271,34.50257257,70,4,9
Dahab,Windsurfing,Happy Kite School,28.47754791,34.50273347,68,4,10
Dahab,Windsurfing,Dahab Stars,28.47959455,34.49320627,28,4,11
Dahab,Windsurfing,Soul-Kiters,28.47835132,34.50208497,50,4,12
Dahab,Windsurfing,Harry Nass Dahab Windsurf,28.47742043,34.50128557,60,4,13
Dahab,Windsurfing,Winderland and Windsurf Center,28.47967412,34.49536247,65,4,14
Dahab,Windsurfing,Fanatic The Boarders Center Dahab,28.47997105,34.4967687,60,4,15
Dahab,Safari,King Safari Dahab,28.49672815,34.51657367,500,4,16
Dahab,Safari,Palma Bedouin  Safari,28.49696158,34.51656607,500,4,17
Dahab,Safari,Desert Fox Safari,28.50914875,34.5136138,500,4,18
Dahab,Safari,Dahab Safari Day Tours,28.49452195,34.51659877,450,4,19
Dahab,Safari,White Canyon,28.88629719,34.4265175,48,4,20
Dahab,Safari,St. Catherine Monastery,28.55592954,33.97603727,45,4,21
Dahab,Safari,Wadi al-Weshwashy,29.16212324,34.6451423,40,4,22
Dahab,Camping,El rayga camp,28.49813495,34.5160181,70,4,23
Dahab,Camping,Lagoona,28.48021625,34.51232667,75,4,24
Dahab,Cafe and Restaurant,Athanor-Cafe -pizzeria,28.4999514,34.51983687,125,4,25
Dahab,Cafe and Restaurant,Cafe Paris Dahab,28.49710831,34.51667347,150,4,26
Dahab,Cafe and Restaurant,Namaste Indian Cuisine,28.50025637,34.51823767,160,4,27
Dahab,Cafe and Restaurant,Si Omar Restaurant,28.49540614,34.51628527,150,4,28
Dahab,Cafe and Restaurant,Tea Garden Cafe,28.49144655,34.515265,210,4,29
Dahab,Cafe and Restaurant,The Kitchen Restaurant,28.49736887,34.51702633,120,4,30
Dahab,Cafe and Restaurant,Laziz Burger,28.50036215,34.51961157,100,4,31
Dahab,Cafe and Restaurant,Kung Fu Pasta,28.49342735,34.517189,170,4,32
Dahab,Cafe and Restaurant,Karkor Restaurant,28.50019483,34.5197722,170,4,33
Dahab,Cafe and Restaurant,Shams Restaurant,28.49224085,34.51689817,200,4,34
Dahab,Cafe and Restaurant,Eel Garden View Restaurant,28.50509285,34.51974237,200,4,35
Dahab,Cafe and Restaurant,Meya meya,28.55504726,34.52116257,200,4,36
Dahab,Cafe and Restaurant,Red Cat,28.49992515,34.51969607,200,4,37
Dahab,Cafe and Restaurant,Shark Restaurant,28.49829552,34.5177961,200,4,38
Dahab,Cafe and Restaurant,Ralph's German Bakery,28.49982353,34.51915697,100,4,39
Dahab,Cafe and Restaurant,Ali Baba Restaurant,28.49769705,34.5171351,300,4,40
Dahab,Cafe and Restaurant,Yum Yum,28.49257585,34.51592557,100,4,41
Dahab,Cafe and Restaurant,Friends Restaurant,28.49797635,34.5174255,250,4,42
Dahab,Cafe and Restaurant,King Chicken Restaurant,28.49293275,34.51593057,200,4,43
Dahab,Cafe and Restaurant,Everday Cafe and Restaurant,28.49235195,34.53840519,300,4,44
Dahab,Cafe and Restaurant,El fanar Restaurant,28.49781225,34.51740917,250,4,45
Dahab,Cafe and Restaurant,Nemo Restaurant,28.49808885,34.51754447,300,4,46
Dahab,Cafe and Restaurant,Ramez and Paola Restaurant,28.49019955,34.51605587,250,4,47
Dahab,Cafe and Restaurant,Al Capone Restaurant,28.49679074,34.51677484,300,4,48
Dahab,Cafe and Restaurant,Yalla Bar,28.49896784,34.51857057,300,4,49
Dahab,Cafe and Restaurant,Food Urge Restaurant,28.50574195,34.51971167,150,4,50
Dahab,Cafe and Restaurant,The Caves ,28.41668141,34.45608587,200,4,51
Dahab,Cafe and Restaurant,El dorado Lodge and Restaurant,28.50404988,34.51978127,200,4,52
Dahab,Cafe and Restaurant,Planet Cafe,28.48427655,34.469815,200,4,53
Dahab,Cafe and Restaurant,Jackie's Restaurant,28.49703655,34.516879,200,4,54
Dahab,Cafe and Restaurant,Dai Pescatori Restaurant,28.50601595,34.51967967,350,4,55
Dahab,Cafe and Restaurant,Nirvana Restaurant,28.49897145,34.51940437,200,4,56
Dahab,Cafe and Restaurant,Aladdin Restaurant,28.49697385,34.516833,200,4,57
Dahab,Cafe and Restaurant,Sea House Restaurant,28.49783341,34.51716727,200,4,58
Dahab,Cafe and Restaurant,Penguin Restaurant,28.49063615,34.51601707,100,4,59
Dahab,Cafe and Restaurant,Same same But Different Restaurant,28.49578655,34.51691267,150,4,60
Dahab,Cafe and Restaurant,Kakao Cafe,28.50459125,34.51960647,100,4,61
Dahab,Cafe and Restaurant,Sababa Hotel,28.49864441,34.51758028,200,4,62
Dahab,Cafe and Restaurant,Shahrzad Cafe and Restaurant,28.49489485,34.5145563,70,4,63
Dahab,Cafe and Restaurant,The Vegan Lab,28.50018695,34.51697987,250,4,64
Dahab,Cafe and Restaurant,Fresh Fish Restaurant,28.49901632,34.51909127,200,4,65
Dahab,Cafe and Restaurant,Shells Restaurant,28.4991343,34.5194168,100,4,66
Dahab,Cafe and Restaurant,Jasmine Restaurant,28.48929145,34.5158947,200,4,67
Dahab,Cafe and Restaurant,Gree Valley Restaurant,28.49768235,34.51701727,250,4,68
Dahab,Cafe and Restaurant,GrillHouse Restaurant,28.50028235,34.51745287,200,4,69
Dahab,Cafe and Restaurant,Fish and Fries Restaurant,28.49987469,34.51979485,300,4,70
Dahab,Cafe and Restaurant,The roof Garden Restaurant,28.49962003,34.51969297,200,4,71
Dahab,Cafe and Restaurant,Sheikh Ali Cafe and Restaurant,28.49170227,34.51381927,300,4,72
Dahab,Cafe and Restaurant,Garage Restaurant Cafe and More,28.50925283,34.51359744,150,4,73
Dahab,Cafe and Restaurant,El Mundo Restaurant,28.48935855,34.51470227,400,4,74
Dahab,Cafe and Restaurant,Antika Restaurant,28.50885594,34.53050263,150,4,75
Dahab,Cafe and Restaurant,Lindy Dahab Restaurant,28.49452975,34.51751777,200,4,76
Dahab,Cafe and Restaurant,View Restaurant,28.50492083,34.5196116,300,4,77
Dahab,Cafe and Restaurant,Box Meal Restaurant,28.50021005,34.51959217,200,4,78
Dahab,Cafe and Restaurant,Hell's Kitchen Restaurant,28.49913248,34.51983607,300,4,79
Dahab,Cafe and Restaurant,Zanooba Slow Cooking,28.50050155,34.51972627,250,4,80
Dahab,Cafe and Restaurant,Alcapone Restaurant,28.49676245,34.51678557,300,4,81
Dahab,Cafe and Restaurant,Fresca Restaurant,28.49963558,34.51968517,150,4,82
Dahab,Cafe and Restaurant,Bonappetit Dahab Restaurant,28.49186445,34.5156976,150,4,83
Dahab,Cafe and Restaurant,Timoja Restaurant and Lounge,28.49900735,34.51844447,100,4,84
Dahab,Cafe and Restaurant,The Princess Restaurant Homemade,28.50724475,34.5167212,100,4,85
Dahab,Cafe and Restaurant,Soup Bar Dahab,28.50889235,34.51608787,75,4,86
Dahab,Cafe and Restaurant,Octobus Restaurant,28.49017812,34.51485727,100,4,87
Dahab,Cafe and Restaurant,JoMo Restaurant,28.48852855,34.5143203,200,4,88
Dahab,Cafe and Restaurant,Marley's Restaurant and Cafe,28.49818395,34.51761927,150,4,89
Dahab,Cafe and Restaurant,Mariam Fish Restaurant,28.50721688,34.51688417,150,4,90
Dahab,Cafe and Restaurant,Tango Sandwich,28.49498612,34.5170619,200,4,91
Dahab,Cafe and Restaurant,Beirut Restaurant,28.50722043,34.5165468,150,4,92
Dahab,Cafe and Restaurant,Namaste 2,28.49530712,34.51698137,160,4,93
Dahab,Cafe and Restaurant,Seaduction Dahab,28.51084565,34.5163969,300,4,94
Dahab,Cafe and Restaurant,Japanese Restaurant,28.4975267,34.51663458,150,4,95
Dahab,Cafe and Restaurant,Sea Bride,28.49406455,34.51584247,350,4,96
Dahab,Cafe and Restaurant,Tim's Munch,28.49847805,34.51783557,200,4,97
Dahab,Cafe and Restaurant,Tota Restaurant,28.49557412,34.51667427,150,4,98
Dahab,Cafe and Restaurant,La Baia,28.49754985,34.51685757,200,4,99
Dahab,Cafe and Restaurant,Kitchen Express,28.49980385,34.51971887,150,4,100
Dahab,Cafe and Restaurant,The holy Chef Restaurant,28.49934948,34.51991167,150,4,101
Dahab,Cafe and Restaurant,Seaweed Sushi Bar,28.49970425,34.51954687,150,4,102
Dahab,Cafe and Restaurant,Honey Burger,28.49042175,34.5152368,100,4,103
Dahab,Cafe and Restaurant,Bayside Eatery,28.49913375,34.5191345,100,4,104
Dahab,Cafe and Restaurant,Al Ostaz Restaurant,28.49403445,34.5155564,50,4,105
Dahab,Cafe and Restaurant,El siwisy Restaurant,28.50516017,34.5152237,100,4,106
Dahab,Cafe and Restaurant,Zeitouna Restaurant,28.47952484,34.49996245,250,4,107
Dahab,Cafe and Restaurant,Mirage Restaurant,28.48259232,34.49712397,200,4,108
Dahab,Cafe and Restaurant,Russian Restaurant,28.49815936,34.51653226,200,4,109
Dahab,Cafe and Restaurant,Pizza Star,28.49314692,34.51532777,150,4,110
Dahab,Cafe and Restaurant,Steakout Restaurant,28.50152568,34.52035257,275,4,111
Dahab,Cafe and Restaurant,That restaurant By HK,28.50056365,34.51589207,200,4,112
Dahab,Cafe and Restaurant,El Primo Restaurant,28.50466925,34.52005987,300,4,113
Dahab,Cafe and Restaurant,Ghazala Restaurant,28.4875101,34.51548598,200,4,114
Dahab,Cafe and Restaurant,Happy Hour Dahab,28.50506355,34.51984227,150,4,115
Dahab,Cafe and Restaurant,City Burger,28.49544975,34.51693477,150,4,116
Dahab,Cafe and Restaurant,Melinka Restaurant,28.50406465,34.5128461,200,4,117
Dahab,Cafe and Restaurant,Dahabians Restaurant,28.49508135,34.51662867,200,4,118
Dahab,Cafe and Restaurant,Blue Cactus Dahab,28.48781925,34.5155313,100,4,119
Dahab,Cafe and Restaurant,Om Mahmoud Restaurant,28.49328545,34.5155028,50,4,120
Dahab,Cafe and Restaurant,Bashk-ha Restaurant,28.49402532,34.51612267,50,4,121
Dahab,Cafe and Restaurant,Abu Hassan Dahab,28.50659455,34.51714877,100,4,122
Dahab,Cafe and Restaurant,Nesima Resort,28.49317745,34.51619787,300,4,123
Dahab,Cafe and Restaurant,Lost Land Restaurant,28.49196855,34.51582537,150,4,124
Dahab,Cafe and Restaurant,El Khaima Restaurant,28.48064598,34.49423927,200,4,125
Dahab,Cafe and Restaurant,Waffle House Dahab,28.50018015,34.5171139,200,4,126
Dahab,Cafe and Restaurant,Doors Cafe Dahab,28.49928305,34.51976787,150,4,127
Dahab,Cafe and Restaurant,Modulo Cafe and restaurant,28.51098843,34.51107457,200,4,128
Dahab,Cafe and Restaurant,Marine Garden camp,28.50012785,34.5201301,200,4,129
Dahab,Cafe and Restaurant,Al Sultan's Kitchen,28.5032809,34.51229157,150,4,130
Dahab,Cafe and Restaurant,Zoghby Restaurant,28.51008263,34.51541197,100,4,131
Dahab,Cafe and Restaurant,Roots Kushary and More,28.50216863,34.51967677,50,4,132
Dahab,Cafe and Restaurant,Noor El-Sabah,28.51233173,34.5143441,50,4,133
Dahab,Cafe and Restaurant,Bedouin Bread,28.50891121,34.51608787,50,4,134
Dahab,Cafe and Restaurant,Dyarna Dahab Hotel,28.48821082,34.51522127,300,4,135
Dahab,Cafe and Restaurant,Abo Zaed Restaurant Dahab,28.49526845,34.5168615,150,4,136
Dahab,Cafe and Restaurant,King Falafel Restaurant,28.49197272,34.51563987,100,4,137
Dahab,Cafe and Restaurant,Chill Out Cafe,28.50039165,34.51699377,100,4,138
Dahab,Cafe and Restaurant,Beduin food,28.49512354,34.5160536,150,4,139
Dahab,Cafe and Restaurant,Abo zed Restaurant,28.49533172,34.51636108,200,4,140
Dahab,Cafe and Restaurant,El Sharkawy Restaurant,28.50651745,34.5179144,150,4,141
Dahab,Cafe and Restaurant,Fish Break,28.50913814,34.51615483,200,4,142
Dahab,Cafe and Restaurant,El PortSaidy Sandwiches,28.49285992,34.5160634,50,4,143
Dahab,Cafe and Restaurant,3M Dahab,28.49681471,34.5160328,150,4,144
Dahab,Cafe and Restaurant,Fattoush-Lebanese Food,28.48792795,34.5155209,200,4,145
Dahab,Cafe and Restaurant,Om Mohamed Restaurant,28.50416681,34.51041733,100,4,146
Dahab,Cafe and Restaurant,Chef Othman Restaurant,28.50743725,34.5170052,200,4,147
Dahab,Cafe and Restaurant,Darwish Fish Market,28.51190565,34.51437067,200,4,148
Dahab,Cafe and Restaurant,Waffle Hut Dahab,28.50003585,34.5207376,150,4,149
Dahab,Cafe and Restaurant,Matamata restaurant,28.48996345,34.51598417,150,4,150
Dahab,Cafe and Restaurant,Le Don Camillo,28.50018125,34.51722047,250,4,151
Dahab,Cafe and Restaurant,Blue House Restaurant and Cafe,28.49790585,34.51746997,200,4,152
Dahab,Cafe and Restaurant,Thai Restaurant,28.49978225,34.5187855,200,4,153
Dahab,Cafe and Restaurant,Jays Cafe,28.49885705,34.51814307,200,4,154
Dahab,Cafe and Restaurant,Afandina Cafe,29.39144063,34.79276427,50,4,155
Dahab,Cafe and Restaurant,Koshari,28.49744332,34.5168308,50,4,156
Dahab,Cafe and Restaurant,Lagona restaurant,28.48617575,34.51312067,100,4,157
Dahab,Cafe and Restaurant,Abo Omar Restaurant,28.50921477,34.51357088,100,4,158
Dahab,Cafe and Restaurant,Abo Ahmed Restaurant,28.4997476,34.51961848,100,4,159
Dahab,Cafe and Restaurant,Romantic italian Restaurant,28.51089405,34.5154461,150,4,160
Dahab,Cafe and Restaurant,Chicken Shop Restaurant,28.50647675,34.51786077,200,4,161
Dahab,Cafe and Restaurant,Seaview Dahab Hotel and restaurant,28.48779912,34.51549177,300,4,162
Dahab,Cafe and Restaurant,El Hossini Restaurant,28.49252935,34.515941,250,4,163
Dahab,Cafe and Restaurant,El Sheikh Karam Restaurant,28.50803255,34.51662727,200,4,164
Dahab,Cafe and Restaurant,The Chinese Restaurant,28.49978225,34.51864597,300,4,165
Dahab,Cafe and Restaurant,Coffee Corner,28.50063295,34.5158572,50,4,166
Dahab,Cafe and Restaurant,Vie Restaurant,28.46988955,34.47817727,70,4,167
Dahab,Cafe and Restaurant,Kiki's Sushi Bar,28.49530302,34.51715637,300,4,168
Dahab,Cafe and Restaurant,Al Madina Fish Restaurant,28.48277515,34.4916809,200,4,169
Dahab,Cafe and Restaurant,El Masryeen King Falafel,28.50065181,34.51960987,50,4,170
Dahab,Cafe and Restaurant,Wish Sandwich,28.51385138,34.51340233,100,4,171
Dahab,Cafe and Restaurant,Everyday Old Factory Cafe,28.49142432,34.5151024,150,4,172
Dahab,Cafe and Restaurant,Speed Bar,28.48053355,34.49176127,100,4,173
Dahab,Cafe and Restaurant,Berry Kitchen,28.49427225,34.51457974,200,4,174
Dahab,Cafe and Restaurant,Sabah w Masa,28.49063986,34.51613457,150,4,175
Dahab,Cafe and Restaurant,Moon House Cafe Restaurant,28.50765305,34.51910034,150,4,176
Dahab,Cafe and Restaurant,Abooo Zaed,28.49536725,34.5169693,200,4,177
Dahab,Cafe and Restaurant,Veganzania restaurant,28.49580195,34.51623957,150,4,178
Dahab,Cafe and Restaurant,Light House Restaurant,28.49919631,34.51990717,200,4,179
Dahab,Cafe and Restaurant,Syrian Food,28.4958145,34.51684287,100,4,180
Dahab,Cafe and Restaurant,Kroosh Restaurant,28.49107925,34.5154381,150,4,181
Dahab,Cafe and Restaurant,Shader El Samak,28.49069025,34.51522897,200,4,182
Dahab,Diving,Octopus World Dahab Dive center,28.49908955,34.51867127,200,4,183
Dahab,Diving,Sea Dancer Dive center,28.49848555,34.51778354,150,4,184
Dahab,Diving,Dahab Divers Lodge,28.50066913,34.51979547,150,4,185
Dahab,Diving,Big Blue Dahab,28.48934255,34.51571727,150,4,186
Dahab,Diving,H20 Divers Dahab,28.49847185,34.51784184,150,4,187
Dahab,Diving,Orca Dive Dahab,28.49610945,34.51675907,150,4,188
Dahab,Diving,Dahab Divers,28.49922185,34.5182456,150,4,189
Dahab,Diving,Aqua Divers Dahab,28.48817445,34.51541707,150,4,190
Dahab,Diving,Scuba Seekers,28.49577922,34.51623987,150,4,191
Dahab,Diving,Bedouin Divers Dahab,28.49195195,34.51659767,150,4,192
Dahab,Diving,XDI- Club Red,28.49498505,34.5173746,150,4,193
Dahab,Diving,Fish and Friends DivingCenter,28.49785492,34.51727107,150,4,194
Dahab,Diving,Dahab Divers Technical,28.49974625,34.5177197,150,4,195
Dahab,Diving,Fantasea Divers Dahab,28.50336995,34.51987997,150,4,196
Dahab,Diving,Penguin Divers Club,28.49070525,34.51600337,150,4,197
Dahab,Diving,Circle Divers Dahab,28.47944341,34.49099617,150,4,198
Dahab,Diving,Deep Blue Divers Dahab,28.49518512,34.51597954,150,4,199
Dahab,Diving,Red Sea Tribe,28.49962205,34.51978507,150,4,200
Dahab,Diving,Sinai Divers Backpackers,28.49789495,34.51709177,150,4,201
Dahab,Diving,Sunsplash Divers Hotel,28.48693275,34.51478021,150,4,202
Dahab,Diving,Desert Divers Dahab,28.5018491,34.5204124,150,4,203
Dahab,Diving,Nesima DivingCentre,28.49282025,34.51710577,150,4,204
Dahab,Diving,Red Sea Relax Dive Center,28.49911255,34.51888537,150,4,205
Dahab,Diving,Black Rock Dive Centre,28.47943755,34.49138817,150,4,206
Dahab,Diving,Poseidon Divers Red Sea ,28.50154855,34.52028067,150,4,207
Dahab,Diving,Duiken In Dahab,28.49592185,34.516606,150,4,208
Dahab,Diving,Liquid Adventures in Dahab,28.49601985,34.51634887,150,4,209
Dahab,Diving,SlyDive Dahab,28.48882918,34.51458717,150,4,210
Dahab,Diving,Blue Realm Diving,28.47825438,34.50120087,150,4,211
Dahab,Diving,Scuba Zone Dahab,28.49041884,34.51499827,150,4,212
Dahab,Diving,Dahab Tec Diving,28.50912605,34.51362367,150,4,213
Dahab,Diving,Mirage Divers,28.50125181,34.52045337,150,4,214
Dahab,Diving,Blue Ocean Dive,28.50914875,34.51360307,150,4,215
Dahab,Diving,Shams Hotel and Dive Centre,28.49228618,34.51658607,150,4,216
Dahab,Diving,Dahab days DivingCentre,28.48054255,34.51204267,150,4,217
Dahab,Diving,Freedive Dahab,28.50000355,34.51935967,150,4,218
Dahab,Diving,Nirvana Divers Hotel,28.49924162,34.51934507,150,4,219
Dahab,Diving,Dpm  Dahab,28.50001415,34.51988107,150,4,220
Dahab,Diving,Sinai Divers ,28.49789495,34.5171025,150,4,221
Dahab,Diving,Dahab Freedivers,28.49918675,34.51883677,150,4,222
Dahab,Diving,Lighthouse Divecenter,28.49917745,34.51990717,150,4,223
Dahab,Diving,Scubatec Dahab Dive Shop,28.51014355,34.51302354,150,4,224
Dahab,Diving,Lagona Divers,28.48617575,34.5131314,150,4,225
Dahab,Diving,Freedive N Egypt Dahab,28.50000355,34.5193704,150,4,226
Dahab,Diving,Shanti freediving,28.49064815,34.5160345,150,4,227
Dahab,Diving,Dive Urge,28.50567055,34.5196037,150,4,228
Dahab,Diving,Reef 2000 DivingCentre,28.51815256,34.51113827,150,4,229
Dahab,Diving,Subsinai DivingHub,28.48818792,34.51179717,150,4,230
Dahab,Diving,Daniela DivingCentre,28.53667876,34.51550127,150,4,231
Dahab,Diving,DivingCenter Escobar,28.50010928,34.5198245,150,4,232
Dahab,Diving,IDC Course Director Marlies,28.49830925,34.51804027,150,4,233
Dahab,Diving,The Dive School in Dahab,28.49051765,34.51519437,150,4,234
Dahab,Diving,Inmo Divers Home,28.48895761,34.51541664,150,4,235
Dahab,Diving,Sub Aqua Dive Center,28.48029798,34.49036127,150,4,236
Dahab,Diving,Extra Divers Worldwide,28.47970668,34.49349627,150,4,237
Dahab,Diving,Dive Store ,28.4992616,34.51975004,150,4,238
Dahab,Diving,Scuba Too,28.50013705,34.51775687,150,4,239
Dahab,Diving,Dahabian Divers Dive center,28.49774415,34.51537427,150,4,240
Dahab,Diving,Three pools Dive Site ,28.43754423,34.4586497,150,4,241
Dahab,Diving,Divers House,28.48947335,34.51572867,150,4,242
Dahab,Diving,7 heaven Hotel and Divingcenter,28.49741308,34.51668157,150,4,243
Dahab,Diving,Bubbles Team For Diving,28.47950905,34.49327807,60,4,244
Dahab,Accomodation,Le Meridien Dahab Resort,28.46931904,34.4774312,1875,5,245
Dahab,Accomodation,Tropitel Dahab Oasis ,28.55161476,34.51727747,948,4,246
Dahab,Accomodation,SkyRock Dahab,28.50873933,34.51815533,3246,4,247
Dahab,Accomodation,Swiss Royal Dahab,28.48631038,34.51243287,644,4,248
Dahab,Accomodation,Surfers Lounge Dahab Lagoon,28.48640245,34.51210017,2582,4,249
Dahab,Accomodation,Red Rock Apartment,28.51240735,34.51470687,2500,4,250
Dahab,Accomodation,Jaz Dahabya ,28.47986025,34.49056127,2115,4,251
Dahab,Accomodation,Tiranna Dahab Resort,28.47917842,34.4999016,1477,4,252
Dahab,Accomodation,Swiss Inn Resort Dahab,28.48068828,34.49452597,904,3,253
Dahab,Accomodation,Villa Kon Tiki With Private Beach ,28.50439898,34.51975977,5789,4,254
Dahab,Accomodation,Villa Boghdady Dahab,28.48627341,34.51201967,2868,4,255
Dahab,Accomodation,Ecotel Dahab Bay Resort ,28.45848238,34.46909474,1633,4,256
Dahab,Accomodation,Red C Villas ,28.51505746,34.51215047,2067,4,257
Dahab,Accomodation,Blue Beach Club Apartment ,28.50156405,34.52028337,1573,1,258
Dahab,Accomodation,Vedouinos ,28.50531903,34.5149802,3000,4,259
Dahab,Accomodation,Deluxe Seahorse Appartment ,28.49944085,34.51903827,3272,4,260
Dahab,Accomodation,The Bedouin Moon Hotel ,28.51820513,34.51119827,904,3,261
Dahab,Accomodation,Sheikh Ali Dahab Resort ,28.49167398,34.51381927,3566,3,262
Dahab,Accomodation,The Castle Hotel ,28.49007619,34.5129265,784,3,263
Dahab,Accomodation,Penguin Villiage Dahab,28.49062672,34.5160278,2298,3,264
Dahab,Accomodation,LadyBird- Golden Europe Hotel  ,28.49951855,34.51982667,481,3,265
Dahab,Accomodation,Station House ,28.48803662,34.51437497,1005,3,266
Dahab,Accomodation,Happy Life Village ,28.44114741,34.46220834,1426,3,267
Dahab,Accomodation,Golden Plaza Dahab Resort ,28.48754735,34.51362901,1240,3,268
Dahab,Accomodation,Coral Coast Dahab,28.50371728,34.51982647,1155,3,269
Dahab,Accomodation,New Dahab Bay Resort ,28.54548013,34.51551527,1510,3,270
Dahab,Accomodation,Villa Boheme and Atelier Boheme ,28.50090905,34.51666117,3283,3,271
Dahab,Accomodation,Jimmy Hotel ,28.49012665,34.51555047,1678,3,272
Dahab,Accomodation,Sea View hotel ,28.48779912,34.51549177,1679,1,273
Dahab,Accomodation,Luna House(Asala),28.5084631,34.5185196,2584,3,274
Dahab,Accomodation,"CozyBeach, Private Seafront Studios ",28.50998514,34.51752077,1208,1,275
Dahab,Accomodation,Dahab Hotel ,28.50202135,34.51970527,2349,3,276
Dahab,Accomodation,Hakuna Matata Dahab,28.50818328,34.51855624,2517,3,277
Dahab,Accomodation,Roudex Dahab Studios and Villas ,28.48623645,34.5124449,1821,3,278
Dahab,Accomodation,El Butrawy Palace ,28.48779362,34.5028125,1510,3,279
Dahab,Accomodation,Panda Resort ,28.47964998,34.49143157,1541,3,280
Dahab,Accomodation,Gulf Paradise ,28.48368205,34.51416497,547,3,281
Dahab,Accomodation,Lagona Loft ,28.48754348,34.50098031,846,3,282
Dahab,Accomodation,Eel Garden Paradise Dahab,28.50509285,34.51974237,1577,3,283
Dahab,Accomodation,La Reine Dahab Hotel ,28.49254052,34.51379457,1313,2,284
Dahab,Accomodation,Ganet Sinai Resort ,28.48049344,34.49220797,2298,2,285
Dahab,Accomodation,Chillax Dahab,28.49290148,34.51479075,2736,2,286
Dahab,Accomodation,Sarah Village ,28.47928038,34.51132098,1751,2,287
Dahab,Accomodation,Amigo Hotel Dahab,28.54411028,34.51583543,574,2,288
Dahab,Accomodation,Sea View appartment,28.51337225,34.51477277,2272,0,289
Dahab,Accomodation,Golden Heights Aqua Park ,28.53401198,34.5136963,766,1,290
Dahab,Accomodation,Shams Hotel and Dive Centre ,28.49228618,34.51658607,705,1,291
Dahab,Accomodation,My Hostel in Dahab- Dive Center,28.49043175,34.51516287,302,1,292
Dahab,Accomodation,Eldorado Lodge and Restaurant,28.50404988,34.519792,638,1,293
Dahab,Accomodation,Monica Hotel,28.49390721,34.51484767,461,1,294
Dahab,Accomodation,El Wady Camp,28.61543166,34.5601185,386,1,295
Dahab,Accomodation,Alaska Camp and Hotel,28.49713908,34.51610924,492,1,296
Dahab,Accomodation,Bishbishi Camp Dahab,28.49115255,34.51521227,121,0,297
Dahab,Accomodation,Charlie House El Mashraba ,28.49288205,34.51590377,201,0,298
Dahab,Accomodation,Carmine Hotel Dahab,28.49853812,34.51565517,483,1,299
Dahab,Accomodation,Neptune Residence ,28.51889631,34.51128871,496,0,300
Dahab,Accomodation,New Happy Land,28.49124841,34.51553427,385,0,301
Dahab,Accomodation,Caesar Camp,28.49436045,34.51668283,227,0,302
Dahab,Accomodation,Gina Motel Dahab,28.49374498,34.51489927,352,0,303
Dahab,Accomodation,Ali Baba Hotel,28.49772855,34.51702194,587,1,304
Dahab,Accomodation,Star of Dahab Resort,28.48933605,34.51562567,876,0,305
Dahab,Accomodation,Dahab Inn,28.49481598,34.51618783,191,1,306
Luxor,Historic,Temple Of Karnak,25.71882492,32.65725957,12.71,4,307
Luxor,Historic,Valley of The Kings,25.74012534,32.60142203,15.25,4,308
Luxor,Historic,Luxor Temple,25.69949232,32.63904017,10.17,4,309
Luxor,Historic,Temple of Deir Bahari,25.72887932,32.60221127,8.9,4,310
Luxor,Historic,Madinet Habu,25.71935175,32.6013401,6.35,4,311
Luxor,Historic,Tombs of The Nobles,25.73075088,32.60932897,2.54,4,312
Luxor,Historic,Colossi Of Memnon,25.72058782,32.6104556,0,4,313
Luxor,Historic,Rammeseum,25.72802418,32.6104602,3.81,4,314
Luxor,Historic,Luxor Museum,25.70770019,32.64446327,8.9,4,315
Luxor,Historic,Deir El- Madina,25.72803432,32.60141427,6.35,4,316
Luxor,Historic,Mortuary Temple Seti,25.73268471,32.62810675,7,4,317
Luxor,Historic,Tomb of TutAnkhAmon,25.74035146,32.6014077,19.06,4,318
Luxor,Historic,Mummification Museum,25.70229725,32.6398497,6.35,4,319
Luxor,Historic,Komombo Temple,24.45214295,32.92842117,8.9,4,320
Luxor,Historic,Temple of Edfu,24.97750067,32.87334904,11.44,4,321
Luxor,Entertainment,Hot Air Balloon,25.68724308,32.63962497,12,4,322
Luxor,Entertainment,Felucca to Banana Island,25.69965482,32.63701643,6,4,323
Luxor,Cafe and Restaurant,Aisha Restaurant,25.69629545,32.62892086,300,4,324
Luxor,Cafe and Restaurant, El Tarboush,25.69227807,32.63120571,200,4,325
Luxor,Cafe and Restaurant,steigenberger Nile palace,25.6936054,32.63172375,300,4,326
Luxor,Cafe and Restaurant, Al-Sahaby Lane,25.7077201,32.64374784,200,4,327
Luxor,Cafe and Restaurant, Pizza Roma-it,25.69361331,32.63412577,250,4,328
Luxor,Cafe and Restaurant, The Lantern Room,25.69474859,32.63115246,200,4,329
Luxor,Cafe and Restaurant, Sofra Restaurant ,25.70114947,32.64161988,200,4,330
Luxor,Cafe and Restaurant, snobs,25.69165481,32.63080913,150,4,331
Luxor,Cafe and Restaurant,Sunflower ,25.70574714,32.63451222,150,4,332
Luxor,Cafe and Restaurant,SunRise Restaurant,25.6946887,32.63242479,200,4,333
Luxor,Cafe and Restaurant, Oasis Palace,25.71174874,32.64389747,250,4,334
Luxor,Cafe and Restaurant, Tutankhamon,25.70698452,32.63245228,100,4,335
Luxor,Cafe and Restaurant, A Taste of India,25.69583862,32.63268276,300,4,336
Luxor,Cafe and Restaurant,Gerda's Garden,25.73440364,32.66038346,150,4,337
Luxor,Cafe and Restaurant, Africa Restaurant,25.71135237,32.63102199,200,4,338
Luxor,Cafe and Restaurant,The Kings Head Pub,25.69235397,32.63061768,100,4,339
Luxor,Cafe and Restaurant, Elwaha Restaurant,25.70833461,32.6331729,150,4,340
Luxor,Cafe and Restaurant,Aboudi Break,25.7022647,32.6393096,150,4,341
Luxor,Cafe and Restaurant, Nubian House ,25.70314023,32.63107609,200,4,342
Luxor,Cafe and Restaurant, Tutti Frutti ,25.68746016,32.64869388,150,4,343
Luxor,Cafe and Restaurant, Wolf Restaurant,25.71877301,32.62620432,200,4,344
Luxor,Cafe and Restaurant,Esquire Restaurant,31.21741402,29.93798074,150,4,345
Luxor,Cafe and Restaurant,Marsam,25.72869239,32.60390029,100,4,346
Luxor,Cafe and Restaurant,1886 Restaurant,25.70207821,32.63695915,200,4,347
Luxor,Cafe and Restaurant,Maratonga,25.72330822,32.60042823,100,4,348
Luxor,Cafe and Restaurant, Nile View ,25.70663768,32.63161826,200,4,349
Luxor,Cafe and Restaurant,Secret Garden,25.69351108,32.63424236,250,4,350
Luxor,Cafe and Restaurant, Kam Thai,25.69156509,32.63171419,100,4,351
Luxor,Cafe and Restaurant,Sonesta St. George,25.72881821,32.6312329,200,4,352
Luxor,Cafe and Restaurant,Oasis Cafe,25.70692496,32.6383392,120,4,353
Luxor,Cafe and Restaurant,Quick Pizza ,25.69737376,32.63737536,130,4,354
Luxor,Cafe and Restaurant, Rosetta,25.73723117,32.65672249,200,4,355
Luxor,Cafe and Restaurant, Maxime,25.69140659,32.62969812,150,4,356
Luxor,Cafe and Restaurant, Jamboree ,25.70740647,32.64289297,200,4,357
Luxor,Cafe and Restaurant, La Fleur,25.67112674,32.62008173,200,4,358
Luxor,Cafe and Restaurant,Wannas Art,25.70837091,32.63118443,150,4,359
Luxor,Cafe and Restaurant, Snack Time,25.70597689,32.63896628,150,4,360
Luxor,Cafe and Restaurant, Silk Road ,25.73514239,32.65600925,150,4,361
Luxor,Cafe and Restaurant, El Fayrouz,25.70904539,32.63265052,200,4,362
Luxor,Cafe and Restaurant, JJ's Bar,25.70779219,32.63149418,150,4,363
Luxor,Cafe and Restaurant, Zigolini,25.67236448,32.62248499,300,4,364
Luxor,Cafe and Restaurant, McDonald's,25.7059069,32.64041167,350,4,365
Luxor,Cafe and Restaurant, African garden,25.71202364,32.63187913,150,4,366
Luxor,Cafe and Restaurant, Malkata House,25.72317082,32.59499763,150,4,367
Luxor,Cafe and Restaurant, Blue Sky,25.68764596,32.64897295,200,4,368
Luxor,Cafe and Restaurant, 88 Restaurant,25.69109363,32.64014849,150,4,369
Luxor,Cafe and Restaurant,Bon Appetit,25.69035306,32.63462601,150,4,370
Luxor,Cafe and Restaurant,"Victoria Room,Winter",25.70053142,32.63592918,200,4,371
Luxor,Cafe and Restaurant, Jana,25.73488155,32.65438741,250,4,372
Luxor,Cafe and Restaurant,Oum Hashim,25.70679947,32.64665423,250,4,373
Luxor,Cafe and Restaurant, Memnon Guesthouse,25.72504125,32.60760311,100,4,374
Luxor,Cafe and Restaurant,Cup Coffee Sunrise,25.70880306,32.63161826,250,4,375
Luxor,Cafe and Restaurant, L'Oasis,25.70180707,32.63770986,250,4,376
Luxor,Cafe and Restaurant, Restaurant Mohammed,25.72957532,32.60538715,150,4,377
Luxor,Cafe and Restaurant,Baris Cafe,25.72305421,32.61424762,150,4,378
Luxor,Cafe and Restaurant,Philadelphia,25.70216227,32.64457307,200,4,379
Luxor,Cafe and Restaurant, Panorama,25.73370014,32.61097269,250,4,380
Luxor,Cafe and Restaurant, El Zaeem ,25.70642484,32.64485804,250,4,381
Luxor,Cafe and Restaurant, Ramesseum ,25.72166324,32.66019025,350,4,382
Luxor,Cafe and Restaurant, AL Hoot,25.69444715,32.64065391,200,4,383
Luxor,Cafe and Restaurant, Castello,25.6915951,32.63678428,150,4,384
Luxor,Cafe and Restaurant,Olives,25.73519082,32.65679067,150,4,385
Luxor,Cafe and Restaurant, Al Hareef,25.70204639,32.64187225,200,4,386
Luxor,Cafe and Restaurant, Nour El Gourna,25.72814431,32.60545385,250,4,387
Luxor,Cafe and Restaurant, El Hussein,25.73256622,32.65765327,200,4,388
Luxor,Cafe and Restaurant, Hotel El Mesala,25.70917978,32.63592511,150,4,389
Luxor,Cafe and Restaurant, Pizza Home,25.69363332,32.63934716,150,4,390
Luxor,Cafe and Restaurant, Chicken Broast,25.70380689,32.64447522,200,4,391
Luxor,Cafe and Restaurant, El Gazira Gardens,25.70865061,32.63191282,150,4,392
Luxor,Cafe and Restaurant, Bil Hana Wa Shifa,25.71108783,32.63556718,150,4,393
Luxor,Cafe and Restaurant,The Roof,25.70953682,32.64335468,200,4,394
Luxor,Cafe and Restaurant, BUA KHAO,25.69163198,32.63028552,250,4,395
Luxor,Cafe and Restaurant, Nero Caffe,25.69138821,32.63474992,220,4,396
Luxor,Cafe and Restaurant, Corniche,25.72110879,32.65008569,230,4,397
Luxor,Cafe and Restaurant, Desert Rose,25.72483375,32.6003777,100,4,398
Luxor,Cafe and Restaurant, The Old Egyptian Village,25.69763475,32.62199712,150,4,399
Luxor,Cafe and Restaurant, Murphy's Irish ,25.69515025,32.6314548,200,4,400
Luxor,Cafe and Restaurant, Nile Valley,25.70928862,32.63147861,150,4,401
Luxor,Cafe and Restaurant, Moon Valley,25.72301483,32.61954682,200,4,402
Luxor,Cafe and Restaurant, La Mammas ,25.68858794,32.62994511,250,4,403
Luxor,Cafe and Restaurant,Elnakhil,25.71140882,32.63162725,150,4,404
Luxor,Cafe and Restaurant, Georgina,25.6921673,32.6364882,300,4,405
Luxor,Cafe and Restaurant, Habou Garden,25.72440745,32.60176089,350,4,406
Luxor,Cafe and Restaurant, Kabab Abou Hager ,25.70049961,32.64084228,200,4,407
Luxor,Cafe and Restaurant, Abu Gad,25.72265531,32.64768243,150,4,408
Luxor,Cafe and Restaurant, Makany ,25.75086268,32.6375444,150,4,409
Luxor,Cafe and Restaurant, Tudor Rose,25.69433366,32.63199882,200,4,410
Luxor,Cafe and Restaurant,Asmak El-qersh,25.69256795,32.63507267,250,4,411
Luxor,Cafe and Restaurant, New Memnon,25.72508758,32.61290947,250,4,412
Luxor,Cafe and Restaurant,Abou Alhassan Elshazly,25.70130104,32.64159605,150,4,413
Luxor,Cafe and Restaurant,Castello,25.6913226,32.63097217,200,4,414
Luxor,Cafe and Restaurant,Cleopatra,25.71317754,32.63016126,250,4,415
Luxor,Cafe and Restaurant,Ritz,25.69517112,32.63312392,255,4,416
Luxor,Cafe and Restaurant,Bonjour ,25.73488473,32.66128176,300,4,417
Luxor,Cafe and Restaurant,Mamma Mia!,25.6937641,32.63419135,200,4,418
Luxor,Cafe and Restaurant, Sindbad,25.71717714,32.64811885,150,4,419
Luxor,Cafe and Restaurant, Salt & Bread,25.70181376,32.64647931,150,4,420
Luxor,Cafe and Restaurant, Beban,25.6937524,32.62942083,200,4,421
Luxor,Cafe and Restaurant,Gaddis,25.69640861,32.6327806,150,4,422
Luxor,Cafe and Restaurant, Badiea ,25.68210178,32.62574926,150,4,423
Luxor,Cafe and Restaurant,Bahary,25.70501319,32.64150178,150,4,424
Luxor,Cafe and Restaurant,House of the Scorpion,25.70773046,32.63347497,200,4,425
Luxor,Cafe and Restaurant,KFC,25.6912672,32.62911878,150,4,426
Luxor,Cafe and Restaurant,New Oum Hashim,25.70735286,32.64348475,150,4,427
Luxor,Cafe and Restaurant,Casa Di Napoli,25.69239006,32.6303805,100,4,428
Luxor,Cafe and Restaurant,Lotus,25.70576221,32.6408205,100,4,429
Luxor,Cafe and Restaurant,Le Bougainvillier,25.7200264,32.64880009,300,4,430
Luxor,Cafe and Restaurant,Areeka,25.69497607,32.63871323,250,4,431
Luxor,Cafe and Restaurant,Twinky Patisserie,25.70261529,32.64388807,300,4,432
Luxor,Cafe and Restaurant,Bayt Ward ,25.72812071,32.65441342,150,4,433
Luxor,Cafe and Restaurant,Thai Restaurant,25.69517445,32.63003718,150,4,434
Luxor,Cafe and Restaurant,Selfie,25.69601283,32.63805407,200,4,435
Luxor,Cafe and Restaurant,Hamees,25.71501191,32.64811885,150,4,436
Luxor,Cafe and Restaurant,Egyptian Home Food,25.70470205,32.63124837,200,4,437
Luxor,Cafe and Restaurant,El Sabaa,25.71817054,32.65017338,150,4,438
Luxor,Cafe and Restaurant,Caffe Moka,25.69992011,32.63671492,300,4,439
Luxor,Cafe and Restaurant,Emperor Cafe,25.69356877,32.63808826,200,4,440
Luxor,Cafe and Restaurant,Food and ambience,25.69295002,32.63774493,150,4,441
Luxor,Cafe and Restaurant,Zam Zam,25.71547579,32.62286426,150,4,442
Luxor,Cafe and Restaurant,The Roof Terrace,25.70891527,32.63228922,200,4,443
Luxor,Cafe and Restaurant,Chicken Broast,25.69865239,32.64247236,150,4,444
Luxor,Cafe and Restaurant,Peace,25.71755191,32.6474268,150,4,445
Luxor,Cafe and Restaurant,The Romance Pizzeria,25.70238506,32.63454412,150,4,446
Luxor,Cafe and Restaurant,Akher Saa,25.70173704,32.64015563,200,4,447
Luxor,Cafe and Restaurant,Maro,25.70035671,32.64724212,150,4,448
Luxor,Cafe and Restaurant,Horus Cafe,25.72639575,32.65778279,100,4,449
Luxor,Cafe and Restaurant,Luxor Cafe,25.72330223,32.65364752,100,4,450
Luxor,Cafe and Restaurant,Luxor Museum Cafe,25.72250084,32.64777012,100,4,451
Luxor,Cafe and Restaurant,YuShanFang Royal Chinese,25.72331169,32.6503772,150,4,452
Luxor,Cafe and Restaurant,Crocodile,25.70763164,32.63319235,150,4,453
Luxor,Cafe and Restaurant,Al Mina ,25.71711208,32.63910769,150,4,454
Luxor,Cafe and Restaurant,Chez Omar,25.70704352,32.64245478,200,4,455
Luxor,Cafe and Restaurant,Magneto Cafe,25.68250993,32.64184294,150,4,456
Luxor,Cafe and Restaurant,Saad Sons ,25.69210398,32.63362279,200,4,457
Luxor,Cafe and Restaurant,Zeitoun,25.69418315,32.62228692,150,4,458
Luxor,Cafe and Restaurant,Dr. Ai Cafe,25.70711177,32.63107171,150,4,459
Luxor,Cafe and Restaurant, Tropicana,25.69146192,32.63175379,200,4,460
Luxor,Cafe and Restaurant,Cafe des Dï¿½lices,25.69548382,32.63003718,250,4,461
Luxor,Cafe and Restaurant,The Nubian,25.69208068,32.63141047,250,4,462
Luxor,Cafe and Restaurant,The View,25.6945557,32.63209711,200,4,463
Luxor,Cafe and Restaurant,Atfdilos Crepes,25.69489132,32.63770012,150,4,464
Luxor,Cafe and Restaurant,Tito Cafe,25.66729959,32.63104359,150,4,465
Luxor,Cafe and Restaurant,Al Baladi Restaurant,25.69343277,32.63854666,200,4,466
Luxor,Cafe and Restaurant,Sky,25.71377462,32.64674556,150,4,467
Luxor,Cafe and Restaurant,CTV,25.71439327,32.64880549,150,4,468
Luxor,Cafe and Restaurant,Shababik Luxor ,25.6917124,32.63946185,200,4,469
Luxor,Cafe and Restaurant,Queen,25.69552434,32.6375631,200,4,470
Luxor,Cafe and Restaurant,Abu Adam Grills,25.69202178,32.64049181,150,4,471
Luxor,Cafe and Restaurant,Cafeteria SALT & BREAD,25.70438962,32.6438233,175,4,472
Luxor,Accomodation,steigenberger Resort Achi,25.68256171,32.627716,1100,5,473
Luxor,Accomodation,Hilton Luxor Resort and Spa,25.73041378,32.65661077,2827,5,474
Luxor,Accomodation,Pavillon Winter Luxor,25.69690916,32.63860902,1414,5,475
Luxor,Accomodation,steigenberger nile palace Luxor,25.68760162,32.63123057,822,5,476
Luxor,Accomodation,Jollie Ville Hotel and Spa ,25.66567041,32.6217177,1395,5,477
Luxor,Accomodation,Scofitel Winter Palace  Luxor,25.69666175,32.63712257,2475,5,478
Luxor,Accomodation,Sonesta St. George Hotel,25.68865462,32.63130087,1149,5,479
Luxor,Accomodation,Pyramisa Hotel Luxor,25.68657455,32.63061058,582,4,480
Luxor,Accomodation,Iberotel Luxor,25.69452265,32.63505087,786,4,481
Luxor,Accomodation,Aracan Eatabe Luxor Hotel,25.70519155,32.64303351,569,4,482
Luxor,Accomodation,Al Moudira Hotel,25.68453308,32.55275427,4378,4,483
Luxor,Accomodation,Jewel Luxor Hotel,25.69717282,32.63655807,839,4,484
Luxor,Accomodation,El Mesala Hotel,25.70315462,32.63368527,741,3,485
Luxor,Accomodation,Thebes Hotel,25.71278945,32.62455823,739,3,486
Luxor,Accomodation,Sussana Hotel Luxor,25.70132335,32.64189438,461,3,487
Luxor,Accomodation,Nile Valley Hotel,25.70419152,32.63370197,821,3,488
Luxor,Accomodation,Sunflower Guest House Luxor West Bank,25.70541542,32.6321887,328,3,489
Luxor,Accomodation,Gaddis Hotel Suites,25.68572782,32.63120517,442,3,490
Luxor,Accomodation,Razieky Hotel and camp,25.71100767,32.64831914,365,3,491
Luxor,Accomodation,Phillipe Luxor Hotel,25.70544582,32.64344257,529,3,492
Luxor,Accomodation,El Gezira Garden Hotel Luxor,25.70507052,32.632834,1003,3,493
Luxor,Accomodation,Lotus Luxor Hotel,25.68785332,32.63120967,766,3,494
Luxor,Accomodation,Windsor Hotel Luxor,25.70599168,32.64343957,403,3,495
Luxor,Accomodation,El Nakhil Hotel ,25.70486522,32.63159011,638,3,496
Luxor,Accomodation,Shady Hotel Luxor,25.69361572,32.639823,544,3,497
Luxor,Accomodation,New Saint Catherine Hotel,25.70194898,32.64450073,292,2,498
Luxor,Accomodation,Dream Island,25.69321539,32.62300985,471,2,499
Aswan,Historic,Jeziret Aswan,24.08996017,32.88940144,5,4,500
Aswan,Historic,Abu Simbel Temple,22.33721204,31.62578827,15.25,4,501
Aswan,Historic,Philea Temple,24.02574459,32.88418917,11.44,4,502
Aswan,Historic,The Unfinished Obelisk,24.07688749,32.89542627,5.08,4,503
Aswan,Historic,Monastery of St. Simeon,24.09461388,32.87569647,6,4,504
Aswan,Historic,Nubian Museum,24.07941509,32.88918563,8.9,4,505
Aswan,Historic,High Dam,24.08523778,32.89064898,6.35,4,506
Aswan,Historic,Lake Nasser,22.73425924,32.18996665,3,4,507
Aswan,Historic,Aga Khan Mausoleum,24.08815762,24.08815762,5,4,508
Aswan,Historic,Wadi El-sabeu,22.79337279,32.5450197,3,4,509
Aswan,Historic,Tombs of The Nobles,25.73074122,32.6093397,5,4,510
Aswan,Shopping,Aswan Souq,24.09084799,32.89676617,5,4,511
Aswan,Cafe and Restaurant,Mezze Restaurant,24.10163843,32.89294193,200,4,512
Aswan,Cafe and Restaurant,Panorama Restaurant,24.09981726,32.8929609,200,4,513
Aswan,Cafe and Restaurant,Al Qahwa Cafe,24.09858197,32.89016962,150,4,514
Aswan,Cafe and Restaurant,Bob Marley Guest House ,24.09460893,32.88927294,150,4,515
Aswan,Cafe and Restaurant,The Terrace,24.08827067,32.88950615,200,4,516
Aswan,Cafe and Restaurant,Nubian dreams ,24.09698428,32.8923026,150,4,517
Aswan,Cafe and Restaurant,1902 Restaurant,24.08795565,32.88834376,150,4,518
Aswan,Cafe and Restaurant,El Masry,24.09794499,32.89910551,200,4,519
Aswan,Cafe and Restaurant,Makani restaurant,24.09085372,32.88948774,250,4,520
Aswan,Cafe and Restaurant,El Dokka,24.08878644,32.88544358,150,4,521
Aswan,Cafe and Restaurant,Makka Restaurant,24.10493939,32.90102406,100,4,522
Aswan,Cafe and Restaurant,King Jamaica,24.09557775,32.88980544,150,4,523
Aswan,Cafe and Restaurant,Old Nubian Guest,24.03862395,32.88337464,200,4,524
Aswan,Cafe and Restaurant,Abeer restoran,24.10393464,32.89977874,250,4,525
Aswan,Cafe and Restaurant,Solaih Nubian ,24.02909433,32.88474005,250,4,526
Aswan,Cafe and Restaurant,Oriental Kebabgy,24.08664472,32.88669523,200,4,527
Aswan,Cafe and Restaurant,Sun Deck ,24.11568633,32.89877052,150,4,528
Aswan,Cafe and Restaurant,Porto Sono,24.13341575,32.89219728,200,4,529
Aswan,Cafe and Restaurant,Kato Dool,24.06748082,32.86627735,250,4,530
Aswan,Cafe and Restaurant,Nubian Restaurant,24.09910792,32.90652157,150,4,531
Aswan,Cafe and Restaurant,Chef Khalil,24.10231319,32.90063787,200,4,532
Aswan,Cafe and Restaurant,Aswan Moon,24.09038223,32.89478527,250,4,533
Aswan,Cafe and Restaurant,Ibiza Nubian House,24.09503367,32.9010284,150,4,534
Aswan,Cafe and Restaurant, Cilantro,24.10438292,32.8993697,250,4,535
Aswan,Cafe and Restaurant,Biti Pizza,24.10833419,32.90123609,300,4,536
Aswan,Cafe and Restaurant,Al Dokka,24.08331958,32.88051726,150,4,537
Aswan,Cafe and Restaurant,Saraya,24.08580888,32.8857869,150,4,538
Aswan,Cafe and Restaurant,Emy,24.09545526,32.89594218,150,4,539
Aswan,Cafe and Restaurant,Gambari Afandi Seafood,24.09222253,32.90693254,200,4,540
Aswan,Cafe and Restaurant,Alexandria kaman we kaman ,24.10142039,32.89574927,250,4,541
Aswan,Cafe and Restaurant,Gambareca,24.08953416,32.89741499,300,4,542
Aswan,Cafe and Restaurant,Al-Makka,24.09817574,32.89971267,150,4,543
Aswan,Cafe and Restaurant,Grand Restaurant,24.10570194,32.90206751,150,4,544
Aswan,Cafe and Restaurant,Koshary El-safwa,24.10093052,32.90032737,150,4,545
Aswan,Cafe and Restaurant,El Salam Nile & Seafood,24.09400389,32.89677041,300,4,546
Aswan,Cafe and Restaurant,Krouma Camp & Ecolodge,24.05907771,32.86343599,150,4,547
Aswan,Cafe and Restaurant,Strawberry Restaurant,24.09752045,32.88716372,150,4,548
Aswan,Cafe and Restaurant,Pizza - Esmo A,24.0966332,32.89863294,150,4,549
Aswan,Cafe and Restaurant,Cilantro Aswan,24.10399094,32.89807791,300,4,550
Aswan,Cafe and Restaurant,Ali Baba Restaurant,24.13265002,32.88936457,150,4,551
Aswan,Cafe and Restaurant,Hajah Huluwh,24.09453817,32.8988946,150,4,552
Aswan,Cafe and Restaurant,Mona Lisa,24.09409344,32.89965511,300,4,553
Aswan,Cafe and Restaurant,Mona Liza,24.0853609,32.89257066,150,4,554
Aswan,Cafe and Restaurant,Snob Cafe,24.10896806,32.90116786,150,4,555
Aswan,Cafe and Restaurant,ahlak w nask,24.09378003,32.90034176,200,4,556
Aswan,Cafe and Restaurant,Jana Kato,24.09376455,32.90696341,150,4,557
Aswan,Cafe and Restaurant,Gambarica,24.0850189,32.90684354,150,4,558
Aswan,Cafe and Restaurant,Makani Restaurant,26.82007618,30.80232387,200,4,559
Aswan,Cafe and Restaurant,Masel Camp,26.82068896,30.80266719,150,4,560
Aswan,Accomodation,Pyramisa Island Hotel Aswan ,24.07878079,32.87999407,1000,5,561
Aswan,Accomodation,Sofitel Legend Old Cataract,24.08231999,32.88782057,7779,5,562
Aswan,Accomodation,Movenpick Resort Aswan,24.0932138,32.89154107,3714,5,563
Aswan,Accomodation,Tollip Aswan Hotel,24.10906888,32.90125867,2681,5,564
Aswan,Accomodation,Shehrazad Nile Floating Hotel,24.10640906,32.89979074,1067,5,565
Aswan,Accomodation,Citymax Hotel Aswan,24.09743,32.89832997,1275,4,566
Aswan,Accomodation,Basma Hotel Aswan,24.07794459,32.88751667,1503,4,567
Aswan,Accomodation,Obelisk Nile Hotel Aswan,24.09228948,32.8954931,1477,4,568
Aswan,Accomodation,Basma Executive Hotel,24.07775898,32.88615343,1833,4,569
Aswan,Accomodation,Citymax Aqua Park Hotel Aswan,24.09743979,32.89832997,797,4,570
Aswan,Accomodation,Kato Dool Nubian Resort,24.06025719,32.86438087,1510,3,571
Aswan,Accomodation,Cleopatra Hotel,24.0780533,32.88742787,595,3,572
Aswan,Accomodation,Mahraba Palace Resort,24.09963589,32.90013227,1003,3,573
Aswan,Accomodation,Orchida St.George Hotel,24.08762199,32.89404507,438,3,574
Aswan,Accomodation,Sara Hotel Aswan,24.06740965,32.87841234,525,3,575
Aswan,Accomodation,Nubian Oasis Hotel,25.91065793,32.76337807,1544,3,576
Aswan,Accomodation,Kendaka Nubian House,24.06317378,32.86449063,1342,2,577
Siwa,Cafe and Restaurant,Ola restaurant,29.20084042,25.52002231,150,4,578
Siwa,Cafe and Restaurant,Abdu Restaurant,29.20310218,25.52085995,200,4,579
Siwa,Cafe and Restaurant,Tanta Waa Juice Bar,29.19786042,25.54925278,250,4,580
Siwa,Cafe and Restaurant,Shahrazad,29.2029985,25.52167464,150,4,581
Siwa,Cafe and Restaurant,Nour El Waha Garden,29.20238224,25.51955157,150,4,582
Siwa,Cafe and Restaurant,Hayat ?afe,29.20989525,25.51868438,200,4,583
Siwa,Cafe and Restaurant,Fahmi's Garden,29.19953043,25.52424887,250,4,584
Siwa,Cafe and Restaurant,Joba Lounge,29.19696132,25.54993943,150,4,585
Siwa,Cafe and Restaurant,Anaro Restaurant ,29.20177324,25.52138725,150,4,586
Siwa,Cafe and Restaurant,Alahrar Restaurant,29.20330241,25.51868438,150,4,587
Siwa,Cafe and Restaurant,Campione Cafe,29.20270304,25.520401,250,4,588
Siwa,Cafe and Restaurant,Ana maria Cafe,31.35744969,27.22535215,250,4,589
Siwa,Cafe and Restaurant,Tekeyet El Amir,29.20370821,25.51972371,150,4,590
Siwa,Cafe and Restaurant,Cleopatra Main restaurant,29.19767502,25.55152668,150,4,591
Siwa,Safari ,Grand Sand Sea,29.20326166,25.51979903,500,4,592
Siwa,SightSeeing,Fatnas Island,29.19234988,25.48071737,30,4,593
Siwa,SightSeeing,Cleopatra Lake,29.19832122,25.54970647,30,4,594
Siwa,SightSeeing,Sunset at Grand Sand Sea,29.20326166,25.51979903,30,4,595
Siwa,SightSeeing,Siwa Lake,29.21834557,25.46134554,30,4,596
Siwa,Historic,Gebel Al- Mawta,29.21134506,25.52512468,20,4,597
Siwa,Historic,Shali Fortress,29.20256228,25.51648177,20,4,598
Siwa,Historic,Dakrur Mountain,29.18877093,25.55243964,20,4,599
Siwa,Historic,Temple of Amun,29.188696,25.55248256,20,4,600
Siwa,Historic,Temple of Umm Ubayd,29.20197779,25.54453258,20,4,601
Siwa,Historic,The traditional Siwa House,29.20363735,25.51828427,30,4,602
Siwa,Swimming,The Salt lake,29.21807772,25.46116928,20,4,603
Siwa,Swimming,Almaza Hot Spring,29.18762888,25.56417437,20,4,604
Siwa,Swimming,Hayaat Siwa Hot Spring,29.16057591,25.55449654,20,4,605
Siwa,Swimming,Bir Wahed,29.12194188,25.43216237,20,4,606
Siwa,Camping,Siwa Astro Camp- Siwawi,29.13182631,25.56159657,50,4,607
Siwa,Camping,Siwa House,29.20316875,25.51957323,50,4,608
Siwa,Camping,Siwa Camp Osman oasis,29.16932415,25.55859807,50,4,609
Siwa,Camping,Mountain Camp Ali Khaled,29.18962855,25.55664688,50,4,610
Siwa,Camping,Al Mahdy Resort,29.22009692,25.31268777,50,4,611
Siwa,Camping,Ghaba Camp,29.20504748,25.52403237,50,4,612
Siwa,Camping,Ayur Resort,29.19108862,25.54809927,50,4,613
Siwa,Camping,Santa Raya Camp,29.17889088,25.56662007,50,4,614
Siwa,Camping,Hidigda Camp,29.18733602,25.56239233,50,4,615
Siwa,Camping,Siwa Taranoz,29.24109221,25.47319427,50,4,616
Siwa,Camping,Taghaghien Island,29.22520465,25.46777847,50,4,617
Siwa,Camping,Al Nyhaya,29.10182813,25.57242587,50,4,618
Siwa,Camping,Ahmed Safari Camp,28.34812827,28.82214887,50,4,619
Siwa,Accomodation,Dream Lodge Siwa ,29.21011815,25.52797351,925,4,620
Siwa,Accomodation,Siwa Shali Resort,29.17853601,25.554253,675,3,621
Siwa,Accomodation,Nour El Waha Hotel,29.20181553,25.52329817,755,3,622
Siwa,Accomodation,Siwa Paradise,29.20298589,25.52280727,873,2,623
Siwa,Accomodation,Reem el Waha ,29.20543973,25.53469727,500,3,624
Cairo,Historic,Mosque of Muhammed Ali,30.02910554,31.2598355,50,4,625
Cairo,Historic,Cairo Citadel,30.0287824,31.25975127,100,4,626
Cairo,Historic,Mosque and Madrasa of Sultan Hassan,30.03182395,31.25646008,50,4,627
Cairo,Historic,Mosque of Ibn Tulun,30.02868169,31.24938337,50,4,628
Cairo,Historic,Gayer-Anderson Museum,30.02832069,31.250744,50,4,629
Cairo,Historic,Ben Ezra Synagogue,30.00569502,31.23106578,100,4,630
Cairo,Historic,Bab Zuweila,30.04269469,31.25776627,50,4,631
Cairo,Historic,Qalawun Complex,30.04936203,31.26100461,50,4,632
Cairo,Historic,Fort of Babylon,30.00567689,31.2299174,50,4,633
Cairo,Historic,Bab al- Futuh,30.0553475,31.26339737,50,4,634
Cairo,Historic,Mosque of Sultan Al- Ashraf Barsbay,30.04750064,31.260041,50,4,635
Cairo,Historic,Abu sir Pyramids,29.89755318,31.20907197,50,4,636
Cairo,Historic,St Mercurius Church,30.01553824,31.23249873,50,4,637
Cairo,Historic,Manzil Zeinab Khatoon,30.04483137,31.2634855,50,4,638
Cairo,Historic,Aisha Fahmy Palace,31.24200471,29.96135937,50,4,639
Cairo,Historic,Bab al-Azab,30.03106148,31.25803905,50,4,640
Cairo,Historic,Madrassa of Al nasir Muhammed,30.02941203,31.26096666,50,4,641
Cairo,Historic,Madrassa of Amir Sarghitmish,30.0298293,31.2490976,50,4,642
Cairo,Historic,Madrassa of Sultan Brquq,30.05119884,31.26117827,50,4,643
Cairo,Historic,Palace of Amir Beshtak,30.05054513,31.26182972,50,4,644
Cairo,Historic,Sabil of Muhammad Ali Basha,30.04410149,31.2584999,50,4,645
Cairo,Historic,Manial Palace Museum,30.02894139,31.23000227,50,4,646
Cairo,Historic,The Coptic Museum,30.00559429,31.23010577,50,4,647
Cairo,Historic,Museum of Islamic Arts,30.04471968,31.25271047,50,4,648
Cairo,Historic,The National Museum of Egyptian Civilization,30.00813999,31.24824967,50,4,649
Cairo,Historic,Mohamed Mahmoud Khalil Museum ,30.03565221,31.21960835,50,4,650
Cairo,Historic,Abdeen Palace Museum,30.04675319,31.24984557,50,4,651
Cairo,Historic,National Military Museum Egypt,30.03065792,31.26241752,50,4,652
Cairo,Historic,Egyptian Geology Museum,29.9963799,31.22888447,50,4,653
Cairo,Historic,Museum of Modern Egyptian Art ,30.04370656,31.22466847,50,4,654
Cairo,Historic,Islamic Ceramic Museum ,30.0571648,31.22263737,50,4,655
Cairo,Historic,Royal Chariots Museum,30.02943806,31.26353323,50,4,656
Cairo,Historic,Egyptian Textiles Museum ,30.0498124,31.26130897,50,4,657
Cairo,Historic,Egyptian Agricultural Museum,30.04629359,31.21021227,50,4,658
Cairo,Historic,Mahmoud Mukhtar Museum ,30.04068689,31.22285817,50,4,659
Cairo,Historic,National Police Museum ,30.03079672,31.25991407,50,4,660
Cairo,Historic,Al-Gawhara Palace,30.0279756,31.25919882,50,4,661
Cairo,Historic,Nations House Museum,29.9967793,31.29242537,50,4,662
Cairo,Historic,Manasterly Palace,30.00718148,31.22487324,50,4,663
Cairo,Historic,Geographical Association of Egypt,30.04110969,31.23603657,50,4,664
Cairo,Historic,Qasr el Eini Museum,30.03869855,31.23501537,50,4,665
Cairo,Historic,Mostafa Kamel Museum ,30.02952538,31.25720957,50,4,666
Cairo,Historic,The Palace of Arts,30.04345479,31.22608957,50,4,667
Cairo,Historic,Foustat Traditional Crafts Center,30.00635909,31.2347231,50,4,668
Cairo,Historic,Capital Art Gallery ,30.06697667,31.21697498,50,4,669
Cairo,Historic,Pyramids of Giza,29.97386901,31.14221534,50,4,670
Cairo,Historic,Egyptian Museum ,30.04779079,31.2336162,50,4,671
Cairo,Historic,Al-Azhar Mosque,30.04567869,31.2626851,50,4,672
Cairo,Historic,Sultan Hussein Mosque,30.02497009,31.25353697,50,4,673
Cairo,Historic,Al muiz L Din Ellah Street,30.04433687,31.25876067,50,4,674
Cairo,Historic,Mosque of Al- Hakim ,30.0545364,31.2635091,50,4,675
Cairo,Historic,Cairo Tower,30.04592427,31.22427597,50,4,676
Cairo,Historic,Djoser Step Pyramids,29.87131338,31.21653227,50,4,677
Cairo,Historic,Dahshur Pyramids,29.79769522,31.24305064,50,4,678
Cairo,Historic,Meidum Pyramid,29.38836838,31.1575026,50,4,679
Cairo,Historic,Al Hussein Mosque,30.04771759,31.2633455,50,4,680
Cairo,Historic,Mosque of Amr Ibn El Ass,30.01004728,31.23312117,50,4,681
Cairo,Historic,Hanging church of Cairo,30.00526628,31.23017187,50,4,682
Cairo,Historic,The church of St.George,30.0062682,31.23007537,50,4,683
Cairo,Historic,Church of St. Barbara,30.00602774,31.23139837,50,4,684
Cairo,Historic,Mosque of Qaitbay,30.04387959,31.27498927,50,4,685
Cairo,Historic,Nilometer,30.00690679,31.22500417,50,4,686
Cairo,Historic,Museo of Mevlevi,30.03357666,31.2540144,50,4,687
Cairo,Historic,Mosque-Madrassa of Al Ghouri ,30.04583182,31.260795,50,4,688
Cairo,Historic,Mosque of Al Mu'ayyed Shaykh,30.04365185,31.2575863,50,4,689
Cairo,Historic,Blue Mosque,30.03622254,31.26007395,50,4,690
Cairo,Historic,Mosque of Maridani,30.03972354,31.25932745,50,4,691
Cairo,Historic,Heliopolis Basilica ,30.09480444,31.32530562,50,4,692
Cairo,Historic,Egyptian Railways Museum ,30.06348858,31.24845787,50,4,693
Cairo,Historic,Octobar War Panorama,30.0742635,31.30679607,50,4,694
Cairo,Entertainment,Al Azhar Park ,30.04023787,31.26492582,50,4,695
Cairo,Entertainment,Cairo Tower ,30.04592427,31.22427597,50,4,696
Cairo,Entertainment,Tahrir Square ,30.04439009,31.2357188,50,4,697
Cairo,Entertainment,Khan El Khalili,30.04772929,31.2622538,50,4,698
Cairo,Entertainment,Cairo International Stadium,30.0691166,31.31239567,50,4,699
Cairo,Entertainment,Trapped Egypt,30.02979389,31.4620754,50,4,700
Cairo,Entertainment,Sherlocked Egypt,30.04117897,31.2003146,50,4,701
Cairo,Entertainment,Placebo,29.95671499,31.26056184,50,4,702
Cairo,Entertainment,IBC-International Bowling Center,30.0730771,31.30830737,50,4,703
Cairo,Entertainment,Escape Games,30.0643497,31.21566627,50,4,704
Cairo,Entertainment,Adrenalin Paintball,30.02784746,30.93767753,50,4,705
Cairo,Entertainment,The Horror House,30.07980728,31.45486367,50,4,706
Cairo,Entertainment,Immersive VR,30.02648509,31.4957455,50,4,707
Cairo,Entertainment,Nile River ,30.04408799,31.24347157,50,4,708
Cairo,Entertainment,MindMaze Egypt,29.95708959,31.2756675,50,4,709
Cairo,Entertainment,VOX Cinema Cairo,30.0817771,31.36303703,50,4,710
Cairo,Entertainment,Breakout ,30.02115128,31.4245191,50,4,711
Cairo,Shopping,Arkadia Mall ,30.0698086,31.22702197,50,4,712
Cairo,Shopping,The First Mall ,30.02420079,31.21718567,50,4,713
Cairo,Shopping,Khan El Khalili Center ,30.04772929,31.2622538,50,4,714
Cairo,Shopping,Ramsees Mall ,30.05110407,31.23287497,50,4,715
Cairo,Shopping,Cairo Festival ,30.02742819,31.40748437,50,4,716
Cairo,Shopping,Talaat Harb Mall ,30.0501212,31.24002297,50,4,717
Cairo,Shopping,City Centre Maadi ,29.98333799,31.31634933,50,4,718
Cairo,Shopping,Uptown Plaza ,30.01856311,31.29827285,50,4,719
Cairo,Shopping,Maadi Grand Mall ,29.96557289,31.27014067,50,4,720
Cairo,Shopping,Hub 50 mall ,29.96835289,31.31340884,50,4,721
Cairo,Shopping,City stars Heliopolis,30.0728641,31.3458082,50,4,722
Cairo,Shopping,City Centre Almaza ,30.0807143,31.36494637,50,4,723
Cairo,Shopping,Mokttam Mall ,30.01876779,31.27960057,50,4,724
Cairo,Shopping,Future Mall ,29.98188796,31.42612308,50,4,725
Cairo,Shopping,Mirage Outlet Mall ,30.0797467,31.45526057,50,4,726
Cairo,Shopping,Gardenia Mall ,30.00999606,31.43584104,50,4,727
Cairo,Shopping,3 Skies Plaza ,30.02661629,31.4961698,50,4,728
Cairo,Shopping,Florida Mall ,30.1008225,31.37050467,50,4,729
Cairo,Shopping,Boulevard Mall ,30.0702551,31.48405627,50,4,730
Cairo,Shopping,Makka Center ,30.00986479,31.49407107,50,4,731
Cairo,Cafe and Restaurant,Nisantasi ,30.02838719,31.40908083,300,4,732
Cairo,Cafe and Restaurant,Charlie's Restaurant,30.02653693,31.407222,300,4,733
Cairo,Cafe and Restaurant,Indira Indian Restaurant ,30.0737909,31.3441754,300,4,734
Cairo,Cafe and Restaurant,Piccolo Mondo ,30.05169362,31.22774408,300,4,735
Cairo,Cafe and Restaurant,Koshary Abu Tarek,30.05013395,31.23775898,300,4,736
Cairo,Cafe and Restaurant,Carlo's Le Pacha 1901,30.05179687,31.22776687,300,4,737
Cairo,Cafe and Restaurant,Taboula Lebanese Restaurant,30.03969325,31.23276289,300,4,738
Cairo,Cafe and Restaurant,Zooba ,30.0611829,31.21895737,300,4,739
Cairo,Cafe and Restaurant,Ayadina Lebanese Restaurant ,30.07440762,31.34551222,300,4,740
Cairo,Cafe and Restaurant,What the crust ,29.96964249,31.27509237,300,4,741
Cairo,Cafe and Restaurant,Kazaz Restaurant ,30.04717392,31.23927225,300,4,742
Cairo,Cafe and Restaurant,L'Asiatique - Le Pacha 1901,30.05179687,31.22776687,300,4,743
Cairo,Cafe and Restaurant,Le Steak Restaurant ,30.05183251,31.22769522,300,4,744
Cairo,Cafe and Restaurant,Cairo Kitchen ,30.0600108,31.22105647,300,4,745   
Cairo,Cafe and Restaurant,Tutti Matti ,30.07429721,31.34433197,300,4,772
Cairo,Cafe and Restaurant,Al Khal Egyptian Restaurant ,30.0724031,31.34789977,300,4,866
Cairo,Cafe and Restaurant,Oldish ,30.06634977,31.21956644,300,4,867
Cairo,Cafe and Restaurant,Fayrouz Lebanese Restaurant ,30.0723417,31.34799987,300,4,868
Cairo,Cafe and Restaurant,Lexie's ,30.02431356,31.45408197,300,4,869
Cairo,Cafe and Restaurant,Old Cairo Restaurant and Cafe ,30.00776549,31.23003143,300,4,870
Cairo,Cafe and Restaurant,Bar'Oro ,30.04581269,31.23214965,300,4,871
Cairo,Cafe and Restaurant,Olivo Pizzeria and Bar,30.06793836,31.21966685,300,4,872
Cairo,Cafe and Restaurant,Bab El Sharq ,30.04548119,31.23217947,300,4,873
Cairo,Cafe and Restaurant,Pane Vino Restaurant ,30.04325909,31.2320642,300,4,874
Cairo,Cafe and Restaurant,Lucca ,30.06043658,31.41948127,300,4,875
Cairo,Cafe and Restaurant,Torii Restaurant ,30.0578262,31.22517123,300,4,876
Cairo,Cafe and Restaurant,La Palmeraie ,30.03883389,31.22408897,300,4,877
Cairo,Cafe and Restaurant,Pepenero ,30.09068063,31.32356245,300,4,878
Cairo,Cafe and Restaurant,Kababgy Oriental Grill  ,30.03881098,31.22426,300,4,879
Cairo,Cafe and Restaurant,Pier88 Nile River ,30.05288241,31.22674347,300,4,880
Cairo,Cafe and Restaurant,Bab el Nil ,30.0719724,31.22759607,300,4,881
Cairo,Cafe and Restaurant,Nile Terrace,30.04267105,31.23172464,300,4,882
Cairo,Cafe and Restaurant,MAAT ,30.07312574,31.22205817,300,4,963
Cairo,Cafe and Restaurant,Zaki El Sammak ,30.05667878,31.23043771,300,4,964
Cairo,Cafe and Restaurant,Hamada Makarona ,30.04827449,31.23603207,300,4,965
Cairo,Cafe and Restaurant,Beggah ,30.04102599,31.24371867,300,4,966
Cairo,Cafe and Restaurant,The Chinese Muslim Restaurant ,30.05970801,31.27341967,300,4,967
Cairo,Cafe and Restaurant,Flying Fish,30.0507201,31.21692967,300,4,968
Cairo,Cafe and Restaurant,City Crepe Restaurant ,30.04951781,31.199124,300,4,969
Cairo,Cafe and Restaurant,South Restaurant ,30.07101212,31.22094004,300,4,970
Cairo,Cafe and Restaurant,Le Rendez-Vous ,30.04441029,31.23572233,300,4,971
Cairo,Cafe and Restaurant,Abdallah Bashandy Restaurant ,30.03156258,31.23448997,300,4,972
Cairo,Cafe and Restaurant,New Kursal Restaurant ,30.0537934,31.24444707,300,4,973
Cairo,Cafe and Restaurant,Escobar Restaurant ,30.03963447,31.23334594,300,4,974
Cairo,Cafe and Restaurant,Cafe Riche ,30.04699385,31.23817521,300,4,975
Cairo,Cafe and Restaurant,Ashraf Restaurant ,30.03879179,31.23762624,300,4,976
Cairo,Cafe and Restaurant,Tamarai ,30.0722664,31.22819557,300,4,977
Cairo,Cafe and Restaurant,Fousping ,30.0495403,31.23968077,300,4,978
Cairo,Cafe and Restaurant,VIP Restaurant ,30.06092361,31.21969827,300,4,979
Cairo,Cafe and Restaurant,Abou Ali Cafe ,30.0910887,31.37942993,300,4,980
Cairo,Cafe and Restaurant,El Prince Restaurant ,30.0806169,31.2188924,300,4,981
Cairo,Cafe and Restaurant,OPIA Lounge ad Bar ,30.05025069,31.23193595,300,4,982
Cairo,Cafe and Restaurant,Mr Koko ,30.04368319,31.24023157,300,4,983
Cairo,Cafe and Restaurant,Cairo Sky Restaurant ,29.97203618,31.23567204,300,4,984
Cairo,Cafe and Restaurant,Pub 28,30.0630355,31.22002487,300,4,985
Cairo,Cafe and Restaurant,Arafa Koshary ,30.0788944,31.24480407,300,4,986
Cairo,Cafe and Restaurant,Odeon Palace Bar ,30.0505506,31.23880267,300,4,987
Cairo,Cafe and Restaurant,It's Cafe and Restaurant ,30.0509779,31.20811477,300,4,988
Cairo,Cafe and Restaurant,Lobby Lounge ,30.04623789,31.23210551,300,4,989
Cairo,Cafe and Restaurant,Red Elephant Restaurant ,30.0522132,31.19993257,300,4,990
Cairo,Cafe and Restaurant,LA Curva 1907,30.08688628,31.32468383,300,4,991
Cairo,Cafe and Restaurant,"The Nile Ritz -Cartlton, Cairo ",30.04587959,31.2320351,300,4,992
Cairo,Cafe and Restaurant,Al Shebany ,30.03899129,31.21149201,300,4,993
Cairo,Cafe and Restaurant,Sachi Heliopolis ,30.08787557,31.32469175,300,4,994
Cairo,Cafe and Restaurant,CHO Restaurant and Lounge ,30.08554587,31.32914237,300,4,995
Cairo,Cafe and Restaurant,Solis Restaurant ,29.96082208,31.24800298,300,4,996
Cairo,Accomodation,Ramses Hilton Hotel and Casino,30.05024473,31.23203967,1459,5,997
Cairo,Accomodation,Fairmont Nile City,30.0717457,31.22794,2189,5,998
Cairo,Accomodation,Grand Nile Tower,30.03415279,31.22704039,739,5,999
Cairo,Accomodation,InterContinental Cairo,30.0728641,31.34579747,1988,5,1000
Cairo,Accomodation,Cario Mariott Hotel,30.05704341,31.22450227,2353,5,1001
Cairo,Accomodation,Sofitel Cairo Nile,30.03869689,31.22461183,2353,5,1002
Cairo,Accomodation,Pyramisa Suites Hotel Cairo,30.0378919,31.21810415,1048,5,1003
Cairo,Accomodation,Tolip Gardens Hotel,30.06224141,31.4013612,693,5,1004
Cairo,Accomodation,Le Mereidien Cairo Airport,30.111248,31.39698677,2225,5,1005
Cairo,Accomodation,Sheraton Cairo Hotel and Casino,30.03918539,31.22030547,2118,5,1006
Cairo,Accomodation,Concorde El salam,30.12376612,31.34804124,1440,5,1007
Cairo,Accomodation,Hilton Cairo Heliopolis Hotel,30.1067594,31.36453997,2280,5,1008
Cairo,Accomodation,Conrad Cairo Hotel and Casino,30.06541718,31.22775587,2189,5,1009
Cairo,Accomodation,Le passage Cairo Hotel and Casino,30.12182406,31.40026027,1757,5,1010
Cairo,Accomodation,Holiday Inn CityStars,30.07405823,31.34397287,1824,5,1011
Cairo,Accomodation,Triumph Luxury Hotel,30.00331481,31.40118241,2006,5,1012
Cairo,Accomodation,Dusit Thani LakeView Cairo,30.02604829,31.45520687,3111,5,1013
Cairo,Accomodation,Mariott Mena House,29.98535469,31.13305054,3630,5,1014
Cairo,Accomodation,The Gabriel Hotel,30.10327498,31.3862892,1171,5,1015
Cairo,Accomodation,"The Nile Ritz -Cartlton, Cairo ",30.04587959,31.2320351,4013,5,1016
Cairo,Accomodation,Novotel Cairo Airport,30.12114804,31.40195531,1003,4,1017
